{
  "posts": [{
    "Id": 1,
    "Phone": "+593 XX-XXX-XXX",
    "Name": "David Araujo",
    "Title": "Viaje A",
    "Address": "Calle x",
    "Description": "Viaje",
    "UpdateDescription": "",
    "Latitude": -0.1674027763646159,
    "Longitude": -78.47094603889924,
    "CustomerType": 1,
    "Taxis": [
      {
        "id": 3
      }],
    "CustomerCategory": 1
  }, {
    "Id": 2,
    "Phone": "+593 XX-XXX-XXX",
    "Name": "BBBBBBBBBB",
    "Title": "tituloB",
    "Address": "Callebbbbb",
    "Description": "DescBbbbb",
    "UpdateDescription": "",
    "Latitude": -0.1698626865861518,
    "Longitude": -78.47514771904376,
    "Taxis": [
      {
        "id": 3
      }
    ],
    "CustomerCategory": 2
  },
  {
    "Id": 3,
    "Phone": "+593 XX-XXX-XXX",
    "Name": "A",
    "Title": "Aaaaaaaaaaaaa",
    "Address": "Calle xyzzz",
    "Description": "xyzzzz",
    "UpdateDescription": "",
    "Latitude": -0.16288897268889635,
    "Longitude": -78.47435378522721,
    "CustomerType": 1,
    "Taxis": [
      {
        "id": 3
      }
    ],
    "CustomerCategory": 3
  },
           {
    "Id": 4,
    "Phone": "(555) XXX-XXXX",
    "Name": "XYZ",
    "Title": "XYZ",
    "Address": "Quicentro",
    "Description": "VF.",
    "UpdateDescription": "",
    "Latitude": -0.17600171051549987,
    "Longitude": -78.47931464564618,
    "CustomerType": 1,
    "Taxis": [
      {
        "id": 3
      }
    ],
    "CustomerCategory": 3
  }]

}
